{"type":"FeatureCollection", "features":[
{"type":"Feature","geometry":{"type":"Point","coordinates":[29.430867999658517,-2.0725570000054745]},"properties":{"OBJECTID":1117,"Prov_Kin":"Iburengerazuba","Prov_Eng":"Western Province","District":"Karongi","Sector":"Rubengera","Cell":"Bubazi","Village":"Kavumu","Name":"GS Bubazi","School_ID":"310905","Highest_Ed":"Secondary A' Level","Coordinate":"Yes","Latitude":-2.072557,"Longitude":29.430868}},
{"type":"Feature","geometry":{"type":"Point","coordinates":[29.411916999869675,-2.0659439999155893]},"properties":{"OBJECTID":1118,"Prov_Kin":"Iburengerazuba","Prov_Eng":"Western Province","District":"Karongi","Sector":"Rubengera","Cell":"Bubazi","Village":"Nyagahinga","Name":"VTC Rubengera II","School_ID":"310925","Highest_Ed":"VTC","Coordinate":"Yes","Latitude":-2.065944,"Longitude":29.411917}},
{"type":"Feature","geometry":{"type":"Point","coordinates":[29.414331999722037,-2.0618649997698526]},"properties":{"OBJECTID":1119,"Prov_Kin":"Iburengerazuba","Prov_Eng":"Western Province","District":"Karongi","Sector":"Rubengera","Cell":"Gacaca","Village":"Gasharu","Name":"Gacaca","School_ID":"310903","Highest_Ed":"Primary","Coordinate":"Yes","Latitude":-2.061865,"Longitude":29.414332}},
{"type":"Feature","geometry":{"type":"Point","coordinates":[29.42704200038804,-2.060218000260477]},"properties":{"OBJECTID":1120,"Prov_Kin":"Iburengerazuba","Prov_Eng":"Western Province","District":"Karongi","Sector":"Rubengera","Cell":"Gacaca","Village":"Nyarubuye","Name":"GS Nyarubuye","School_ID":"310907","Highest_Ed":"Secondary A' Level","Coordinate":"Yes","Latitude":-2.060218,"Longitude":29.427042}},
{"type":"Feature","geometry":{"type":"Point","coordinates":[29.414268000367997,-2.0495229998865057]},"properties":{"OBJECTID":1121,"Prov_Kin":"Iburengerazuba","Prov_Eng":"Western Province","District":"Karongi","Sector":"Rubengera","Cell":"Gacaca","Village":"Kamwijagi","Name":"TTC Rubengera","School_ID":"310922","Highest_Ed":"Secondary A' Level","Coordinate":"Yes","Latitude":-2.049523,"Longitude":29.414268}},
{"type":"Feature","geometry":{"type":"Point","coordinates":[29.413548000439903,-2.0429020003269898]},"properties":{"OBJECTID":1122,"Prov_Kin":"Iburengerazuba","Prov_Eng":"Western Province","District":"Karongi","Sector":"Rubengera","Cell":"Gisanze","Village":"Kibande","Name":"Etoile","School_ID":"310902","Highest_Ed":"Primary","Coordinate":"Yes","Latitude":-2.042902,"Longitude":29.413548}},
{"type":"Feature","geometry":{"type":"Point","coordinates":[29.4125819999594,-2.042594999659457]},"properties":{"OBJECTID":1123,"Prov_Kin":"Iburengerazuba","Prov_Eng":"Western Province","District":"Karongi","Sector":"Rubengera","Cell":"Gisanze","Village":"Nyamagana","Name":"Rubengera1","School_ID":"310916","Highest_Ed":"Primary","Coordinate":"Yes","Latitude":-2.042595,"Longitude":29.412582}},
{"type":"Feature","geometry":{"type":"Point","coordinates":[29.41009999971527,-2.045891999715991]},"properties":{"OBJECTID":1124,"Prov_Kin":"Iburengerazuba","Prov_Eng":"Western Province","District":"Karongi","Sector":"Rubengera","Cell":"Gisanze","Village":"Nyamagana","Name":"ES Rubengera","School_ID":"310901","Highest_Ed":"Secondary A' Level","Coordinate":"Yes","Latitude":-2.045892,"Longitude":29.4101}},
{"type":"Feature","geometry":{"type":"Point","coordinates":[29.40724999958786,-2.043027999842252]},"properties":{"OBJECTID":1125,"Prov_Kin":"Iburengerazuba","Prov_Eng":"Western Province","District":"Karongi","Sector":"Rubengera","Cell":"Gisanze","Village":"Kabatara","Name":"Rubengera VTC Cpm Adpr","School_ID":"310923","Highest_Ed":"VTC","Coordinate":"Yes","Latitude":-2.043028,"Longitude":29.40725}},
{"type":"Feature","geometry":{"type":"Point","coordinates":[29.445020000272848,-2.079236999587806]},"properties":{"OBJECTID":1126,"Prov_Kin":"Iburengerazuba","Prov_Eng":"Western Province","District":"Karongi","Sector":"Rubengera","Cell":"Gitwa","Village":"Kibande","Name":"Kanyamurinda","School_ID":"310910","Highest_Ed":"Primary","Coordinate":"Yes","Latitude":-2.079237,"Longitude":29.44502}},
{"type":"Feature","geometry":{"type":"Point","coordinates":[29.407283000210327,-2.0544100004211145]},"properties":{"OBJECTID":1127,"Prov_Kin":"Iburengerazuba","Prov_Eng":"Western Province","District":"Karongi","Sector":"Rubengera","Cell":"Kibirizi","Village":"Ndengwa","Name":"Rubengera2","School_ID":"310917","Highest_Ed":"Primary","Coordinate":"Yes","Latitude":-2.05441,"Longitude":29.407283}},
{"type":"Feature","geometry":{"type":"Point","coordinates":[29.39762700008606,-2.0500099998615724]},"properties":{"OBJECTID":1128,"Prov_Kin":"Iburengerazuba","Prov_Eng":"Western Province","District":"Karongi","Sector":"Rubengera","Cell":"Kibirizi","Village":"Kamusanganya","Name":"GS Kibirizi","School_ID":"310906","Highest_Ed":"Secondary A' Level","Coordinate":"Yes","Latitude":-2.05001,"Longitude":29.397627}},
{"type":"Feature","geometry":{"type":"Point","coordinates":[29.406056000284252,-2.0608060003965534]},"properties":{"OBJECTID":1129,"Prov_Kin":"Iburengerazuba","Prov_Eng":"Western Province","District":"Karongi","Sector":"Rubengera","Cell":"Kibirizi","Village":"Rubona","Name":"Ipesar","School_ID":"310908","Highest_Ed":"Secondary A' Level","Coordinate":"Yes","Latitude":-2.060806,"Longitude":29.406056}},
{"type":"Feature","geometry":{"type":"Point","coordinates":[29.386636999597897,-2.036432999683143]},"properties":{"OBJECTID":1130,"Prov_Kin":"Iburengerazuba","Prov_Eng":"Western Province","District":"Karongi","Sector":"Rubengera","Cell":"Mataba","Village":"Nyagisozi","Name":"Mataba","School_ID":"310911","Highest_Ed":"Primary","Coordinate":"Yes","Latitude":-2.036433,"Longitude":29.386637}},
{"type":"Feature","geometry":{"type":"Point","coordinates":[29.444679999882112,-2.051620000362675]},"properties":{"OBJECTID":1131,"Prov_Kin":"Iburengerazuba","Prov_Eng":"Western Province","District":"Karongi","Sector":"Rubengera","Cell":"Nyarugenge","Village":"Kabazi","Name":"Rwimpiri","School_ID":"310920","Highest_Ed":"Primary","Coordinate":"Yes","Latitude":-2.05162,"Longitude":29.44468}},
{"type":"Feature","geometry":{"type":"Point","coordinates":[29.416597999897817,-2.0785720003974575]},"properties":{"OBJECTID":1132,"Prov_Kin":"Iburengerazuba","Prov_Eng":"Western Province","District":"Karongi","Sector":"Rubengera","Cell":"Ruragwe","Village":"Nyagatovu","Name":"Nyagatovu","School_ID":"310912","Highest_Ed":"Primary","Coordinate":"Yes","Latitude":-2.078572,"Longitude":29.416598}},
{"type":"Feature","geometry":{"type":"Point","coordinates":[29.402349000206243,-2.0685860003436005]},"properties":{"OBJECTID":1133,"Prov_Kin":"Iburengerazuba","Prov_Eng":"Western Province","District":"Karongi","Sector":"Rubengera","Cell":"Ruragwe","Village":"Rutabo","Name":"Rutabo","School_ID":"310918","Highest_Ed":"Primary","Coordinate":"Yes","Latitude":-2.068586,"Longitude":29.402349}}
]}
